City_ID,City,Lat,Lng,Max Temp,Humidity,Cloudiness,Wind Speed,Country,Date
0,port hardy,50.6996,-127.4199,7.1,70,75,5.66,CA,Mon Mar  6 17:32:47 2023
1,barrow,71.2906,-156.7887,-9.99,85,100,8.75,US,Mon Mar  6 17:31:24 2023
2,rio grande,-32.035,-52.0986,25.06,88,100,7.73,BR,Mon Mar  6 17:32:47 2023
3,bethel,41.3712,-73.414,9.87,31,0,5.66,US,Mon Mar  6 17:30:18 2023
4,la ronge,55.1001,-105.2842,-14.88,39,0,2.06,CA,Mon Mar  6 17:32:48 2023
5,albany,42.6001,-73.9662,5.23,49,77,4.79,US,Mon Mar  6 17:30:37 2023
6,cherskiy,68.75,161.3,-32.51,94,24,1.62,RU,Mon Mar  6 17:32:48 2023
7,port alfred,-33.5906,26.891,18.99,93,54,1.79,ZA,Mon Mar  6 17:32:48 2023
8,clyde river,70.4692,-68.5914,-11.87,85,20,2.06,CA,Mon Mar  6 17:32:49 2023
9,butaritari,3.0707,172.7902,27.0,78,81,5.15,KI,Mon Mar  6 17:30:00 2023
10,rikitea,-23.1203,-134.9692,26.95,77,100,10.12,PF,Mon Mar  6 17:32:49 2023
11,mataura,-46.1927,168.8643,14.71,43,99,1.6,NZ,Mon Mar  6 17:32:50 2023
12,ambilobe,-13.2,49.05,23.32,95,61,1.44,MG,Mon Mar  6 17:32:50 2023
13,dingle,10.9995,122.6711,23.42,89,4,3.84,PH,Mon Mar  6 17:32:41 2023
14,busselton,-33.65,115.3333,13.04,78,0,5.75,AU,Mon Mar  6 17:30:08 2023
15,jamestown,42.097,-79.2353,4.77,61,100,4.63,US,Mon Mar  6 17:22:57 2023
16,cape town,-33.9258,18.4232,18.95,76,20,10.29,ZA,Mon Mar  6 17:30:04 2023
17,ushuaia,-54.8,-68.3,9.79,76,75,7.72,AR,Mon Mar  6 17:32:51 2023
18,wadena,46.4425,-95.1361,2.86,51,0,5.14,US,Mon Mar  6 17:32:51 2023
19,kodiak,57.79,-152.4072,2.73,75,0,2.06,US,Mon Mar  6 17:29:24 2023
20,cairns,-16.9167,145.7667,26.73,97,75,1.54,AU,Mon Mar  6 17:32:52 2023
21,castro,-24.7911,-50.0119,18.4,91,95,1.85,BR,Mon Mar  6 17:25:27 2023
22,farah,32.5,62.5,16.16,31,0,0.15,AF,Mon Mar  6 17:32:52 2023
23,tsiroanomandidy,-18.7667,46.0333,19.54,96,93,1.94,MG,Mon Mar  6 17:32:53 2023
24,mpika,-11.8343,31.4529,15.86,97,94,0.6,ZM,Mon Mar  6 17:32:53 2023
25,honiara,-9.4333,159.95,29.73,65,86,1.04,SB,Mon Mar  6 17:32:53 2023
26,reading,51.4562,-0.9711,5.92,77,100,2.06,GB,Mon Mar  6 17:30:41 2023
27,kargasok,59.0556,80.8572,-2.27,89,100,8.28,RU,Mon Mar  6 17:32:54 2023
28,sanandaj,35.3144,46.9923,11.01,54,40,8.23,IR,Mon Mar  6 17:32:54 2023
29,nouakchott,18.0858,-15.9785,24.96,38,100,5.45,MR,Mon Mar  6 17:32:55 2023
30,ishigaki,24.3448,124.1572,19.07,55,100,4.12,JP,Mon Mar  6 17:32:55 2023
31,cabo san lucas,22.8909,-109.9124,26.45,38,0,6.17,MX,Mon Mar  6 17:31:02 2023
32,tasiilaq,65.6145,-37.6368,-5.91,77,96,1.42,GL,Mon Mar  6 17:32:55 2023
33,madawaska,47.3561,-68.3288,-1.83,76,100,9.77,US,Mon Mar  6 17:32:56 2023
34,ponta delgada,37.7333,-25.6667,17.4,88,75,8.75,PT,Mon Mar  6 17:31:55 2023
35,qaanaaq,77.484,-69.3632,-8.88,85,86,3.13,GL,Mon Mar  6 17:32:56 2023
36,henties bay,-22.116,14.2845,16.79,88,56,3.25,NA,Mon Mar  6 17:32:56 2023
37,vaitape,-16.5167,-151.75,25.58,80,100,6.36,PF,Mon Mar  6 17:32:57 2023
38,axim,4.8699,-2.2405,26.51,85,66,5.42,GH,Mon Mar  6 17:32:57 2023
39,dunedin,-45.8742,170.5036,16.56,67,100,1.79,NZ,Mon Mar  6 17:30:14 2023
40,kavieng,-2.5744,150.7967,27.46,75,98,0.66,PG,Mon Mar  6 17:32:57 2023
41,portland,45.5234,-122.6762,11.16,68,75,6.69,US,Mon Mar  6 17:20:07 2023
42,san patricio,28.017,-97.5169,30.4,62,76,6.98,US,Mon Mar  6 17:32:58 2023
43,tual,-5.6667,132.75,28.11,79,100,7.53,ID,Mon Mar  6 17:32:58 2023
44,salta,-24.7859,-65.4117,26.33,81,20,1.34,AR,Mon Mar  6 17:32:59 2023
45,kapaa,22.0752,-159.319,26.18,73,20,6.17,US,Mon Mar  6 17:32:59 2023
46,mahebourg,-20.4081,57.7,25.16,94,75,1.03,MU,Mon Mar  6 17:32:59 2023
47,hay river,60.8156,-115.7999,-15.01,47,20,4.12,CA,Mon Mar  6 17:33:00 2023
48,bredasdorp,-34.5322,20.0403,17.32,77,36,4.47,ZA,Mon Mar  6 17:33:00 2023
49,aswan,24.0934,32.907,23.61,23,0,4.12,EG,Mon Mar  6 17:33:00 2023
50,lichinga,-13.3128,35.2406,17.01,95,100,0.88,MZ,Mon Mar  6 17:33:00 2023
51,faanui,-16.4833,-151.75,25.58,80,100,6.25,PF,Mon Mar  6 17:33:01 2023
52,murchison,-41.8,172.3333,20.08,44,44,1.31,NZ,Mon Mar  6 17:33:01 2023
53,khatanga,71.9667,102.5,-31.52,100,99,1.87,RU,Mon Mar  6 17:30:54 2023
54,new norfolk,-42.7826,147.0587,14.95,63,70,2.68,AU,Mon Mar  6 17:33:02 2023
55,puerto ayora,-0.7393,-90.3518,27.98,91,93,2.68,EC,Mon Mar  6 17:31:59 2023
56,nouadhibou,20.931,-17.0347,22.99,49,20,7.2,MR,Mon Mar  6 17:33:02 2023
57,guerrero negro,27.9769,-114.0611,16.13,63,100,10.08,MX,Mon Mar  6 17:33:02 2023
58,mitu,1.1983,-70.1733,23.89,96,98,0.8,CO,Mon Mar  6 17:33:03 2023
59,winslow,35.0242,-110.6974,18.1,8,0,10.29,US,Mon Mar  6 17:33:03 2023
60,nikolskoye,59.7035,30.7861,-5.06,99,91,1.43,RU,Mon Mar  6 17:33:04 2023
61,vaini,-21.2,-175.2,28.09,69,40,3.6,TO,Mon Mar  6 17:30:37 2023
62,waddan,29.1614,16.139,14.51,31,30,3.75,LY,Mon Mar  6 17:33:04 2023
63,nelson bay,-32.7167,152.15,27.83,55,14,2.68,AU,Mon Mar  6 17:33:05 2023
64,linguere,15.3953,-15.1193,30.35,11,97,4.16,SN,Mon Mar  6 17:33:05 2023
65,thompson,55.7435,-97.8558,-16.91,55,20,4.12,CA,Mon Mar  6 17:30:49 2023
66,rawlins,41.7911,-107.2387,-3.69,80,100,5.14,US,Mon Mar  6 17:31:51 2023
67,trat,12.5,102.5,22.71,85,0,1.47,TH,Mon Mar  6 17:33:06 2023
68,talakan,50.3167,130.3667,-12.48,94,71,1.08,RU,Mon Mar  6 17:33:06 2023
69,carutapera,-1.195,-46.02,24.54,94,100,3.07,BR,Mon Mar  6 17:33:07 2023
70,victoria,22.2855,114.1577,18.51,59,5,2.68,HK,Mon Mar  6 17:30:48 2023
71,chokurdakh,70.6333,147.9167,-42.2,100,91,1.28,RU,Mon Mar  6 17:31:03 2023
72,nishihara,26.1842,127.7558,15.6,65,20,3.6,JP,Mon Mar  6 17:33:07 2023
73,iskateley,67.6803,53.1512,-28.15,97,84,1.45,RU,Mon Mar  6 17:33:08 2023
74,carnarvon,-24.8667,113.6333,24.95,70,0,8.08,AU,Mon Mar  6 17:33:08 2023
75,hofn,64.2539,-15.2082,-4.91,59,74,9.61,IS,Mon Mar  6 17:31:12 2023
76,punta arenas,-53.15,-70.9167,10.01,61,40,11.32,CL,Mon Mar  6 17:30:01 2023
77,kaitangata,-46.2817,169.8464,15.89,57,100,1.62,NZ,Mon Mar  6 17:33:09 2023
78,aklavik,68.2191,-135.0107,-23.0,70,0,1.03,CA,Mon Mar  6 17:30:07 2023
79,palmer,42.1584,-72.3287,7.75,25,40,6.17,US,Mon Mar  6 17:33:10 2023
80,ust-maya,60.4167,134.5333,-16.22,97,100,1.45,RU,Mon Mar  6 17:33:11 2023
81,georgetown,5.4112,100.3354,25.96,79,20,2.57,MY,Mon Mar  6 17:33:11 2023
82,tessalit,20.1986,1.0114,22.64,11,88,3.51,ML,Mon Mar  6 17:33:12 2023
83,hobart,-42.8794,147.3294,15.14,60,40,8.23,AU,Mon Mar  6 17:30:02 2023
84,atuona,-9.8,-139.0333,26.75,78,9,5.12,PF,Mon Mar  6 17:31:00 2023
85,tevaitoa,-16.7833,-151.5,25.57,81,100,7.85,PF,Mon Mar  6 17:33:13 2023
86,aktash,50.3,87.7333,-11.03,88,100,1.55,RU,Mon Mar  6 17:33:13 2023
87,yellowknife,62.456,-114.3525,-21.36,71,20,5.66,CA,Mon Mar  6 17:30:21 2023
88,raudeberg,61.9875,5.1352,-2.85,59,100,7.12,NO,Mon Mar  6 17:33:14 2023
89,saskylakh,71.9167,114.0833,-30.12,100,100,1.87,RU,Mon Mar  6 17:33:14 2023
90,smithers,54.7804,-127.1743,-8.82,45,75,1.54,CA,Mon Mar  6 17:30:20 2023
91,ponta do sol,32.6667,-17.1,20.0,92,89,2.84,PT,Mon Mar  6 17:33:15 2023
92,vallenar,-28.5708,-70.7581,24.09,49,0,2.55,CL,Mon Mar  6 17:33:16 2023
93,songadh,21.1667,73.5667,21.95,48,31,2.56,IN,Mon Mar  6 17:33:16 2023
94,estevan,49.1334,-102.9842,-11.81,61,0,5.14,CA,Mon Mar  6 17:33:17 2023
95,alofi,-19.0595,-169.9187,29.94,79,75,5.66,NU,Mon Mar  6 17:32:11 2023
96,ixtapa,20.7,-105.2,25.13,60,0,6.69,MX,Mon Mar  6 17:32:47 2023
97,upernavik,72.7868,-56.1549,-9.79,88,37,2.94,GL,Mon Mar  6 17:33:17 2023
98,bluff,-46.6,168.3333,14.89,57,100,3.58,NZ,Mon Mar  6 17:33:18 2023
99,araouane,18.9048,-3.5265,24.19,10,94,3.34,ML,Mon Mar  6 17:33:18 2023
100,mormugao,15.4,73.8,24.22,56,0,1.87,IN,Mon Mar  6 17:33:18 2023
101,ribeira grande,38.5167,-28.7,17.1,93,93,11.18,PT,Mon Mar  6 17:30:39 2023
102,santa maria,-29.6842,-53.8069,23.61,100,75,1.54,BR,Mon Mar  6 17:32:51 2023
103,bulgan,48.8125,103.5347,-3.65,65,18,0.6,MN,Mon Mar  6 17:33:19 2023
104,konotop,51.2403,33.2026,-1.46,60,72,3.52,UA,Mon Mar  6 17:33:19 2023
105,hami,42.8,93.45,7.25,36,4,3.14,CN,Mon Mar  6 17:33:20 2023
106,yershov,51.3513,48.2766,-7.39,90,72,3.29,RU,Mon Mar  6 17:33:20 2023
107,san carlos de bariloche,-41.1456,-71.3082,12.92,89,100,2.68,AR,Mon Mar  6 17:29:36 2023
108,caravelas,-17.7125,-39.2481,26.3,82,3,4.32,BR,Mon Mar  6 17:33:21 2023
109,erenhot,43.6475,111.9767,3.56,36,43,6.32,CN,Mon Mar  6 17:33:21 2023
110,nanortalik,60.1432,-45.2371,-1.69,85,13,1.45,GL,Mon Mar  6 17:33:22 2023
111,roshchino,60.2519,29.6085,-8.27,98,99,0.95,RU,Mon Mar  6 17:33:22 2023
112,hilo,19.7297,-155.09,27.93,72,0,3.6,US,Mon Mar  6 17:33:22 2023
113,van buren,35.4368,-94.3483,27.01,41,0,4.12,US,Mon Mar  6 17:33:15 2023
114,muisne,0.6,-80.0333,25.28,88,100,3.76,EC,Mon Mar  6 17:33:23 2023
115,nieuwpoort,51.1244,2.7735,6.16,93,100,9.26,BE,Mon Mar  6 17:33:23 2023
116,ilo,-17.6394,-71.3375,23.66,79,7,1.97,PE,Mon Mar  6 17:33:24 2023
117,manjacaze,-24.7117,33.8828,21.43,93,1,2.36,MZ,Mon Mar  6 17:33:24 2023
118,lorengau,-2.0226,147.2712,26.55,81,96,3.24,PG,Mon Mar  6 17:30:18 2023
119,gisborne,-38.6533,178.0042,17.93,50,3,3.48,NZ,Mon Mar  6 17:32:51 2023
120,cidreira,-30.1811,-50.2056,23.68,91,99,5.81,BR,Mon Mar  6 17:33:25 2023
121,lekoni,-1.5843,14.2591,25.18,84,100,0.62,GA,Mon Mar  6 17:33:25 2023
122,dicabisagan,17.0818,122.4157,20.63,83,53,2.99,PH,Mon Mar  6 17:33:26 2023
123,east london,-33.0153,27.9116,21.2,76,86,5.62,ZA,Mon Mar  6 17:32:58 2023
124,sobolevo,54.4299,31.8996,-9.16,89,79,3.47,RU,Mon Mar  6 17:33:26 2023
125,santa rosa,14.3122,121.1114,22.99,85,0,3.68,PH,Mon Mar  6 17:29:12 2023
126,calvinia,-31.4707,19.776,17.56,63,2,7.97,ZA,Mon Mar  6 17:33:26 2023
127,grand gaube,-20.0064,57.6608,25.22,87,99,0.89,MU,Mon Mar  6 17:33:27 2023
128,port-gentil,-0.7193,8.7815,26.98,89,40,2.57,GA,Mon Mar  6 17:33:27 2023
129,hobbs,32.7026,-103.136,28.23,5,0,6.17,US,Mon Mar  6 17:29:35 2023
130,hermanus,-34.4187,19.2345,18.78,80,27,6.62,ZA,Mon Mar  6 17:33:28 2023
131,sao joao da barra,-21.6403,-41.0511,26.05,88,100,7.9,BR,Mon Mar  6 17:32:14 2023
132,indian head,38.6001,-77.1622,16.67,42,0,1.79,US,Mon Mar  6 17:33:29 2023
133,tsogni,-2.7942,10.0988,25.83,86,100,2.28,GA,Mon Mar  6 17:33:29 2023
134,eselnita,44.6992,22.3622,6.72,77,96,1.42,RO,Mon Mar  6 17:33:29 2023
135,mount isa,-20.7333,139.5,22.87,100,100,5.66,AU,Mon Mar  6 17:33:30 2023
136,praia,14.9215,-23.5087,23.3,60,20,5.66,CV,Mon Mar  6 17:33:30 2023
137,bubaque,11.2833,-15.8333,25.04,68,100,6.95,GW,Mon Mar  6 17:33:31 2023
138,nizwa,22.9333,57.5333,21.19,33,30,1.44,OM,Mon Mar  6 17:33:31 2023
139,alakurtti,66.9672,30.3491,-19.08,100,100,1.32,RU,Mon Mar  6 17:33:32 2023
140,longyearbyen,78.2186,15.6401,-15.09,43,40,8.23,SJ,Mon Mar  6 17:33:32 2023
141,hasaki,35.7333,140.8333,6.23,72,0,2.9,JP,Mon Mar  6 17:33:33 2023
142,urucui,-7.2294,-44.5561,27.86,70,86,2.27,BR,Mon Mar  6 17:33:33 2023
143,coahuayana,18.7333,-103.6833,27.97,54,48,3.27,MX,Mon Mar  6 17:33:33 2023
144,bengkulu,-3.8004,102.2655,23.07,90,76,1.74,ID,Mon Mar  6 17:33:34 2023
145,abdanan,32.9926,47.4198,15.24,72,100,1.32,IR,Mon Mar  6 17:33:34 2023
146,ratnagiri,16.9833,73.3,24.88,48,33,3.15,IN,Mon Mar  6 17:33:34 2023
147,ilebo,-4.3167,20.5833,21.77,99,79,1.8,CD,Mon Mar  6 17:33:35 2023
148,coroico,-16.1889,-67.7271,19.45,87,86,0.62,BO,Mon Mar  6 17:33:35 2023
149,shieli,44.1667,66.75,12.26,66,100,7.17,KZ,Mon Mar  6 17:33:36 2023
150,ostrovnoy,68.0531,39.5131,-12.77,90,100,4.61,RU,Mon Mar  6 17:33:36 2023
151,yar-sale,66.8333,70.8333,-23.32,90,100,5.12,RU,Mon Mar  6 17:33:36 2023
152,airai,-8.9266,125.4092,17.09,84,96,0.81,TL,Mon Mar  6 17:30:36 2023
153,torbay,47.6666,-52.7314,-0.96,88,75,2.06,CA,Mon Mar  6 17:30:49 2023
154,talcahuano,-36.7167,-73.1167,16.82,88,75,3.6,CL,Mon Mar  6 17:30:43 2023
155,vagur,61.4732,-6.8119,0.35,58,100,13.91,FO,Mon Mar  6 17:33:37 2023
156,ojhar,20.1,73.9333,19.01,68,75,2.3,IN,Mon Mar  6 17:33:37 2023
157,mozelos,41.8677,-8.3978,13.27,96,100,1.71,PT,Mon Mar  6 17:33:38 2023
158,darnah,32.767,22.6367,13.65,68,31,1.98,LY,Mon Mar  6 17:33:38 2023
159,arraial do cabo,-22.9661,-42.0278,24.98,83,0,5.14,BR,Mon Mar  6 17:30:16 2023
160,port blair,11.6667,92.75,25.25,77,0,3.52,IN,Mon Mar  6 17:33:08 2023
161,vestmannaeyjar,63.4427,-20.2734,-3.57,55,98,3.61,IS,Mon Mar  6 17:33:38 2023
162,gornyak,50.9942,81.4661,-0.64,90,100,5.03,RU,Mon Mar  6 17:33:39 2023
163,xinyu,27.8043,114.9334,14.67,50,46,1.0,CN,Mon Mar  6 17:33:39 2023
164,zhoucheng,35.9122,116.3117,11.37,65,0,2.57,CN,Mon Mar  6 17:33:40 2023
165,tutoia,-2.7619,-42.2744,26.81,83,99,6.29,BR,Mon Mar  6 17:33:40 2023
166,nanakuli,21.3906,-158.1547,26.04,60,40,6.17,US,Mon Mar  6 17:33:40 2023
167,avarua,-21.2078,-159.775,31.03,74,40,8.75,CK,Mon Mar  6 17:33:41 2023
168,san vicente,-26.6167,-54.1333,23.91,63,47,2.43,AR,Mon Mar  6 17:33:41 2023
169,chuy,-33.6971,-53.4616,21.22,84,68,3.81,UY,Mon Mar  6 17:33:41 2023
170,saint anthony,45.0205,-93.218,2.92,81,100,6.69,US,Mon Mar  6 17:33:42 2023
171,cockburn town,21.4612,-71.1419,24.72,65,8,5.15,TC,Mon Mar  6 17:33:42 2023
172,san cristobal,7.7669,-72.225,25.74,67,83,0.33,VE,Mon Mar  6 17:33:43 2023
173,kota bahru,6.1333,102.2386,23.97,83,20,1.03,MY,Mon Mar  6 17:33:43 2023
174,constitucion,-35.3333,-72.4167,15.79,87,43,4.09,CL,Mon Mar  6 17:33:11 2023
175,tottori,35.5,134.2333,4.04,70,0,5.66,JP,Mon Mar  6 17:33:43 2023
176,lakatoro,-16.0999,167.4164,29.01,69,16,0.44,VU,Mon Mar  6 17:33:44 2023
177,abu samrah,35.3029,37.1841,10.17,74,1,6.89,SY,Mon Mar  6 17:33:44 2023
178,kununurra,-15.7667,128.7333,26.99,69,73,3.09,AU,Mon Mar  6 17:33:45 2023
179,vao,-22.6667,167.4833,25.1,61,26,5.59,NC,Mon Mar  6 17:33:45 2023
180,richards bay,-28.783,32.0377,22.76,92,100,2.62,ZA,Mon Mar  6 17:33:45 2023
181,hithadhoo,-0.6,73.0833,27.52,69,1,1.06,MV,Mon Mar  6 17:33:46 2023
182,vila franca do campo,37.7167,-25.4333,17.23,95,89,9.4,PT,Mon Mar  6 17:33:46 2023
183,boa vista,2.8197,-60.6733,29.99,51,40,4.63,BR,Mon Mar  6 17:27:21 2023
184,flinders,-34.5833,150.8552,26.7,48,60,4.02,AU,Mon Mar  6 17:33:46 2023
185,coihaique,-45.5752,-72.0662,10.34,76,75,3.09,CL,Mon Mar  6 17:33:47 2023
186,tura,25.5198,90.2201,18.19,30,0,1.02,IN,Mon Mar  6 17:33:47 2023
187,lusambo,-4.9667,23.45,21.4,99,97,1.35,CD,Mon Mar  6 17:33:48 2023
188,mount gambier,-37.8333,140.7667,14.5,64,95,5.61,AU,Mon Mar  6 17:33:48 2023
189,tigil,57.8,158.6667,-11.83,94,100,2.74,RU,Mon Mar  6 17:33:48 2023
190,norman wells,65.282,-126.8329,-20.98,65,75,1.54,CA,Mon Mar  6 17:31:16 2023
191,alanya,36.5438,31.9998,10.07,62,0,1.94,TR,Mon Mar  6 17:33:49 2023
192,husavik,66.0449,-17.3389,-5.34,67,100,5.27,IS,Mon Mar  6 17:33:49 2023
193,tautira,-17.7333,-149.15,25.64,78,100,7.24,PF,Mon Mar  6 17:33:50 2023
194,akyab,20.15,92.9,21.37,88,1,2.65,MM,Mon Mar  6 17:33:50 2023
195,mangrol,21.1167,70.1167,24.0,53,0,0.16,IN,Mon Mar  6 17:33:50 2023
196,gushikawa,26.3544,127.8686,15.57,78,0,1.54,JP,Mon Mar  6 17:33:51 2023
197,khash,28.2211,61.2158,15.08,33,0,0.55,IR,Mon Mar  6 17:33:51 2023
198,alekseyevka,50.6309,38.6903,-1.84,76,42,2.61,RU,Mon Mar  6 17:33:51 2023
199,isangel,-19.55,169.2667,27.39,69,15,6.5,VU,Mon Mar  6 17:33:52 2023
200,mogadishu,2.0371,45.3438,25.26,88,57,6.78,SO,Mon Mar  6 17:33:52 2023
201,dikson,73.5069,80.5464,-27.62,97,100,5.28,RU,Mon Mar  6 17:33:52 2023
202,brownwood,31.7093,-98.9912,29.0,47,0,2.57,US,Mon Mar  6 17:29:25 2023
203,brooks,50.5834,-111.8851,-9.01,72,100,2.57,CA,Mon Mar  6 17:33:53 2023
204,saint george,37.1041,-113.5841,12.19,37,0,3.13,US,Mon Mar  6 17:30:05 2023
205,ilulissat,69.2167,-51.1,-5.99,73,0,2.06,GL,Mon Mar  6 17:33:53 2023
206,charlestown,-32.95,151.6667,30.79,43,41,2.68,AU,Mon Mar  6 17:33:54 2023
207,saint-augustin,51.226,-58.6502,1.26,99,100,5.85,CA,Mon Mar  6 17:33:54 2023
208,forestville,38.8451,-76.875,14.72,44,0,1.54,US,Mon Mar  6 17:33:55 2023
209,stromness,58.965,-3.296,-1.02,56,100,12.09,GB,Mon Mar  6 17:30:07 2023
210,leningradskiy,69.3833,178.4167,-30.51,94,11,1.29,RU,Mon Mar  6 17:30:38 2023
211,palana,59.1167,159.9667,-12.26,93,100,1.22,RU,Mon Mar  6 17:33:55 2023
212,fos-sur-mer,43.4377,4.9446,6.95,81,0,3.09,FR,Mon Mar  6 17:33:56 2023
213,laem sing,12.4816,102.0738,22.79,78,0,1.96,TH,Mon Mar  6 17:33:56 2023
214,knysna,-34.0363,23.0471,17.34,91,75,2.2,ZA,Mon Mar  6 17:33:56 2023
215,dzilam gonzalez,21.2833,-88.9333,28.01,56,42,5.68,MX,Mon Mar  6 17:33:57 2023
216,vardo,70.3705,31.1107,-10.01,73,75,8.23,NO,Mon Mar  6 17:33:57 2023
217,berdigestyakh,62.0989,126.6992,-19.26,100,100,1.11,RU,Mon Mar  6 17:33:57 2023
218,fairbanks,64.8378,-147.7164,-1.21,67,100,0.0,US,Mon Mar  6 17:33:35 2023
219,kailua,21.4022,-157.7394,26.61,83,75,5.14,US,Mon Mar  6 17:33:58 2023
220,petropavlovsk-kamchatskiy,53.0452,158.6483,-8.67,86,75,3.0,RU,Mon Mar  6 17:33:58 2023
221,loudi,27.7344,111.9944,18.37,58,95,0.21,CN,Mon Mar  6 17:33:59 2023
222,tres arroyos,-38.3739,-60.2798,33.52,20,88,3.83,AR,Mon Mar  6 17:33:59 2023
223,buin,-33.7333,-70.75,27.18,40,0,2.99,CL,Mon Mar  6 17:33:59 2023
224,oranjemund,-28.55,16.4333,16.62,91,59,3.45,NA,Mon Mar  6 17:34:00 2023
225,kutum,14.2,24.6667,22.36,16,32,4.71,SD,Mon Mar  6 17:34:00 2023
226,katsuura,35.1333,140.3,11.83,68,0,0.58,JP,Mon Mar  6 17:34:00 2023
227,esperance,-33.8667,121.9,15.98,58,47,3.04,AU,Mon Mar  6 17:34:01 2023
228,beringovskiy,63.05,179.3167,-21.31,74,18,2.34,RU,Mon Mar  6 17:34:01 2023
229,taltal,-25.4,-70.4833,22.12,77,8,2.71,CL,Mon Mar  6 17:30:22 2023
230,hovd,48.0056,91.6419,-1.44,30,75,2.93,MN,Mon Mar  6 17:34:02 2023
231,roebourne,-20.7833,117.1333,29.01,75,5,2.3,AU,Mon Mar  6 17:31:17 2023
232,druzhba,52.0428,33.9453,-4.04,77,21,3.57,UA,Mon Mar  6 17:33:14 2023
233,marawi,7.9986,124.2928,19.99,95,67,0.81,PH,Mon Mar  6 17:34:02 2023
234,tuktoyaktuk,69.4541,-133.0374,-29.0,69,20,4.12,CA,Mon Mar  6 17:34:03 2023
235,semey,50.4111,80.2275,-1.87,89,96,2.88,KZ,Mon Mar  6 17:34:03 2023
236,yerbogachen,61.2767,108.0108,-31.46,100,100,1.44,RU,Mon Mar  6 17:34:04 2023
237,bartlesville,36.7473,-95.9808,20.97,42,0,4.63,US,Mon Mar  6 17:34:04 2023
238,pevek,69.7008,170.3133,-33.14,94,26,1.03,RU,Mon Mar  6 17:34:05 2023
239,aquiraz,-3.9014,-38.3911,28.43,85,99,6.19,BR,Mon Mar  6 17:32:50 2023
240,kabinda,-6.1333,24.4833,20.1,92,100,1.45,CD,Mon Mar  6 17:34:06 2023
241,bathsheba,13.2167,-59.5167,26.34,73,40,5.66,BB,Mon Mar  6 17:34:07 2023
242,amboasary,-25.0333,46.3833,22.42,96,98,3.44,MG,Mon Mar  6 17:34:07 2023
243,saint-philippe,-21.3585,55.7679,25.77,86,92,4.45,RE,Mon Mar  6 17:34:08 2023
244,marshall,34.3834,-86.3333,25.86,32,0,5.66,US,Mon Mar  6 17:31:13 2023
245,sakakah,29.9697,40.2064,19.76,40,72,5.53,SA,Mon Mar  6 17:31:41 2023
246,muli,2.9167,73.5667,27.58,75,100,4.78,MV,Mon Mar  6 17:34:09 2023
247,matay,28.419,30.7792,15.58,50,99,6.46,EG,Mon Mar  6 17:34:09 2023
248,narsaq,60.9167,-46.05,7.12,86,19,2.17,GL,Mon Mar  6 17:31:29 2023
249,uchiza,-8.4592,-76.4633,23.46,88,100,0.57,PE,Mon Mar  6 17:34:10 2023
250,mallapuram,11.9667,78.25,18.19,64,99,1.57,IN,Mon Mar  6 17:34:10 2023
251,eyl,7.9803,49.8164,23.69,78,9,5.84,SO,Mon Mar  6 17:34:10 2023
252,samfya,-11.3649,29.5565,18.63,94,96,0.49,ZM,Mon Mar  6 17:34:11 2023
253,vanimo,-2.6741,141.3028,25.35,86,100,1.13,PG,Mon Mar  6 17:34:11 2023
254,carrigaline,51.8117,-8.3986,5.86,87,75,3.09,IE,Mon Mar  6 17:32:12 2023
255,pisco,-13.7,-76.2167,27.03,65,0,7.72,PE,Mon Mar  6 17:34:12 2023
256,port elizabeth,-33.918,25.5701,18.51,93,75,2.06,ZA,Mon Mar  6 17:34:13 2023
257,taoudenni,22.6783,-3.9836,26.78,11,98,4.33,ML,Mon Mar  6 17:34:13 2023
258,nyuksenitsa,60.4128,44.2397,-12.92,99,100,1.69,RU,Mon Mar  6 17:34:14 2023
259,jesus maria,-30.9815,-64.0942,29.28,30,19,5.97,AR,Mon Mar  6 17:34:14 2023
260,junagadh,21.5167,70.4667,23.38,45,0,1.17,IN,Mon Mar  6 17:34:15 2023
261,gimli,50.6336,-96.9907,-13.99,61,86,6.17,CA,Mon Mar  6 17:30:06 2023
262,bhola,22.6833,90.65,22.23,59,0,2.82,BD,Mon Mar  6 17:34:16 2023
263,truth or consequences,33.1284,-107.2528,23.13,12,0,6.17,US,Mon Mar  6 17:34:16 2023
264,yulara,-25.2406,130.9889,22.5,28,0,6.16,AU,Mon Mar  6 17:34:16 2023
265,sao filipe,14.8961,-24.4956,22.73,74,76,1.32,CV,Mon Mar  6 17:31:08 2023
266,itoman,26.1247,127.6694,16.01,64,20,3.6,JP,Mon Mar  6 17:34:17 2023
267,sabang,5.8933,95.3214,27.23,67,0,8.93,ID,Mon Mar  6 17:34:17 2023
268,saldanha,-33.0117,17.9442,19.03,77,50,5.89,ZA,Mon Mar  6 17:34:18 2023
269,finschhafen,-6.6024,147.8681,27.03,82,100,1.12,PG,Mon Mar  6 17:34:19 2023
270,domoni,-12.2569,44.5319,25.85,80,100,3.92,KM,Mon Mar  6 17:34:19 2023
271,praia da vitoria,38.7333,-27.0667,18.14,88,75,13.26,PT,Mon Mar  6 17:34:19 2023
272,natal,-5.795,-35.2094,26.36,78,40,5.14,BR,Mon Mar  6 17:28:07 2023
273,cayenne,4.9333,-52.3333,27.02,78,20,4.12,GF,Mon Mar  6 17:34:20 2023
274,eloy,32.7559,-111.5548,23.87,30,76,3.14,US,Mon Mar  6 17:34:21 2023
275,grindavik,63.8424,-22.4338,-3.74,58,0,7.2,IS,Mon Mar  6 17:34:21 2023
276,barillas,15.8036,-91.3158,22.33,49,19,2.37,GT,Mon Mar  6 17:34:22 2023
277,geraldton,-28.7667,114.6,15.23,82,0,3.6,AU,Mon Mar  6 17:34:23 2023
278,cumberland,35.0502,-78.8664,23.28,34,0,5.14,US,Mon Mar  6 17:34:23 2023
279,hokitika,-42.7167,170.9667,16.77,59,86,1.24,NZ,Mon Mar  6 17:34:24 2023
280,sur,22.5667,59.5289,24.66,51,0,3.39,OM,Mon Mar  6 17:34:24 2023
281,nelspruit,-25.4745,30.9703,23.45,94,92,3.09,ZA,Mon Mar  6 17:34:25 2023
282,pangody,65.85,74.4859,-17.06,97,100,3.26,RU,Mon Mar  6 17:31:51 2023
283,teguise,29.0605,-13.564,16.12,77,20,2.57,ES,Mon Mar  6 17:34:26 2023
284,pokhara,28.2333,83.9833,15.99,27,10,2.97,NP,Mon Mar  6 17:31:37 2023
285,roald,62.5833,6.1333,-1.8,93,100,2.06,NO,Mon Mar  6 17:34:27 2023
286,kodinsk,58.6881,99.1844,-12.63,97,100,2.35,RU,Mon Mar  6 17:34:28 2023
287,manokwari,-0.8667,134.0833,25.96,78,97,1.07,ID,Mon Mar  6 17:34:28 2023
288,sint-gillis-waas,51.228,4.1206,5.59,94,100,4.02,BE,Mon Mar  6 17:34:29 2023
289,brive-la-gaillarde,45.25,1.5,1.27,98,58,0.79,FR,Mon Mar  6 17:34:29 2023
290,mana,5.6592,-53.7767,25.03,85,100,4.79,GF,Mon Mar  6 17:34:30 2023
291,talaya,61.3833,152.75,-26.6,95,100,0.53,RU,Mon Mar  6 17:34:30 2023
292,gamba,-2.65,10.0,26.19,85,100,2.55,GA,Mon Mar  6 17:34:31 2023
293,kaeo,-35.1,173.7833,21.29,87,73,2.15,NZ,Mon Mar  6 17:34:31 2023
294,margherita,27.2833,95.6833,17.01,80,48,1.37,IN,Mon Mar  6 17:34:31 2023
295,anloga,5.7947,0.8973,27.93,84,80,8.5,GH,Mon Mar  6 17:34:32 2023
296,kenora,49.8167,-94.4337,-7.46,45,0,6.17,CA,Mon Mar  6 17:32:42 2023
297,arlit,18.7369,7.3853,26.65,9,53,4.99,NE,Mon Mar  6 17:34:32 2023
298,atherton,53.5237,-2.4935,4.68,80,100,4.29,GB,Mon Mar  6 17:34:33 2023
299,pangnirtung,66.1451,-65.7125,-5.0,93,20,0.0,CA,Mon Mar  6 17:30:58 2023
300,koygorodok,60.445,50.9968,-11.62,98,98,0.97,RU,Mon Mar  6 17:34:33 2023
301,abu dhabi,24.4667,54.3667,25.53,60,0,0.51,AE,Mon Mar  6 17:27:38 2023
302,nexo,55.0607,15.1306,2.05,64,51,5.52,DK,Mon Mar  6 17:34:34 2023
303,goderich,43.7501,-81.7165,3.28,69,100,6.69,CA,Mon Mar  6 17:34:34 2023
304,westport,41.1415,-73.3579,10.9,26,0,6.17,US,Mon Mar  6 17:34:34 2023
305,maloy,61.9353,5.1136,-2.37,59,99,7.08,NO,Mon Mar  6 17:34:35 2023
306,sorland,67.667,12.6934,-3.08,43,94,6.46,NO,Mon Mar  6 17:34:35 2023
307,alasehir,38.3508,28.5172,7.87,83,7,1.76,TR,Mon Mar  6 17:34:35 2023
308,wahpeton,46.2652,-96.6059,-2.27,79,0,12.35,US,Mon Mar  6 17:34:36 2023
309,yumen,40.2833,97.2,4.54,32,0,5.29,CN,Mon Mar  6 17:34:36 2023
310,coruripe,-10.1256,-36.1756,26.66,74,87,5.82,BR,Mon Mar  6 17:31:08 2023
311,miraflores,19.2167,-98.8083,29.42,19,77,1.32,MX,Mon Mar  6 17:34:36 2023
312,port keats,-14.25,129.55,28.59,80,88,4.59,AU,Mon Mar  6 17:34:37 2023
313,port-cartier,50.0334,-66.8654,6.12,92,95,4.27,CA,Mon Mar  6 17:34:37 2023
314,korla,41.7597,86.1469,6.19,47,61,0.24,CN,Mon Mar  6 17:34:37 2023
315,mar del plata,-38.0023,-57.5575,28.24,76,20,3.6,AR,Mon Mar  6 17:34:38 2023
316,broken hill,-31.95,141.4333,17.53,59,0,4.9,AU,Mon Mar  6 17:32:39 2023
317,katobu,-4.9408,122.5276,24.28,93,93,1.55,ID,Mon Mar  6 17:34:38 2023
318,fernie,49.5,-115.0687,0.38,81,88,1.68,CA,Mon Mar  6 17:30:42 2023
319,saint-pierre,-21.3393,55.4781,25.87,78,100,2.06,RE,Mon Mar  6 17:34:39 2023
320,eydhafushi,5.1033,73.0708,27.22,77,98,5.58,MV,Mon Mar  6 17:34:39 2023
321,syamzha,60.0158,41.0614,-10.08,98,99,1.79,RU,Mon Mar  6 17:34:39 2023
322,vetlanda,57.4289,15.0776,-5.53,88,97,1.24,SE,Mon Mar  6 17:34:40 2023
323,mapiripan,2.8892,-72.1256,23.86,92,81,2.65,CO,Mon Mar  6 17:34:40 2023
324,kudahuvadhoo,2.6708,72.8944,27.46,75,100,4.58,MV,Mon Mar  6 17:34:40 2023
325,zeya,53.75,127.2667,-18.53,88,30,1.87,RU,Mon Mar  6 17:34:41 2023
326,nantucket,41.2835,-70.0995,8.08,40,0,7.2,US,Mon Mar  6 17:31:00 2023
327,namibe,-15.1961,12.1522,21.56,80,20,2.14,AO,Mon Mar  6 17:34:41 2023
328,lavrentiya,65.5833,-171.0,-7.85,94,100,3.74,RU,Mon Mar  6 17:34:42 2023
329,tiksi,71.6872,128.8694,-23.99,98,100,2.29,RU,Mon Mar  6 17:34:42 2023
330,udala,43.0778,-2.5125,5.9,91,44,2.06,ES,Mon Mar  6 17:34:42 2023
331,lebu,-37.6167,-73.65,16.61,90,47,3.65,CL,Mon Mar  6 17:34:43 2023
332,dwarka,22.2394,68.9678,23.93,69,0,3.07,IN,Mon Mar  6 17:34:44 2023
333,bambous virieux,-20.3428,57.7575,25.14,94,75,1.03,MU,Mon Mar  6 17:34:44 2023
334,kedrovyy,56.1667,91.8167,-1.74,80,100,5.87,RU,Mon Mar  6 17:34:45 2023
335,luena,-11.7833,19.9167,18.18,94,93,0.79,AO,Mon Mar  6 17:34:45 2023
336,sao gabriel da cachoeira,-0.1303,-67.0892,29.89,74,20,1.03,BR,Mon Mar  6 17:34:45 2023
337,adrar,20.5022,-10.0711,24.29,11,100,3.93,MR,Mon Mar  6 17:34:46 2023
338,san juan,-31.5375,-68.5364,33.54,25,1,4.89,AR,Mon Mar  6 17:32:44 2023
339,lyudinovo,53.8664,34.4478,-7.93,90,22,2.73,RU,Mon Mar  6 17:34:46 2023
340,shambu,9.5667,37.1,14.54,58,87,2.35,ET,Mon Mar  6 17:34:47 2023
341,bilibino,68.0546,166.4372,-29.89,93,7,1.2,RU,Mon Mar  6 17:32:19 2023
342,pangoa,-12.1167,-73.0,23.49,87,88,0.12,PE,Mon Mar  6 17:34:47 2023
343,chilca,-12.5211,-76.7372,23.5,77,57,3.48,PE,Mon Mar  6 17:34:47 2023
344,el progreso,15.4,-87.8,29.86,51,20,7.2,HN,Mon Mar  6 17:34:48 2023
345,huarmey,-10.0681,-78.1522,24.39,74,99,3.97,PE,Mon Mar  6 17:34:48 2023
346,along,28.1667,94.7667,15.92,88,81,0.85,IN,Mon Mar  6 17:34:48 2023
347,tsabong,-26.0217,22.401,25.07,50,60,3.03,BW,Mon Mar  6 17:34:49 2023
348,arkhangelsk,64.5401,40.5433,-12.94,85,0,3.0,RU,Mon Mar  6 17:34:49 2023
349,avera,33.194,-82.5271,25.73,54,27,2.2,US,Mon Mar  6 17:34:49 2023
350,arcata,40.8665,-124.0828,8.71,88,75,6.69,US,Mon Mar  6 17:34:50 2023
351,lompoc,34.6391,-120.4579,14.41,69,75,6.26,US,Mon Mar  6 17:34:50 2023
352,russell,32.3502,-85.1999,29.6,26,0,2.57,US,Mon Mar  6 17:34:50 2023
353,provideniya,64.3833,-173.3,-5.91,86,100,3.0,RU,Mon Mar  6 17:34:51 2023
354,twin falls,42.3505,-114.6445,-2.81,86,100,3.09,US,Mon Mar  6 17:34:51 2023
355,luanda,-8.8368,13.2343,24.59,83,81,3.35,AO,Mon Mar  6 17:33:24 2023
356,sampit,-2.5333,112.95,22.44,99,79,0.84,ID,Mon Mar  6 17:34:51 2023
357,iturama,-19.7281,-50.1956,24.64,79,12,0.55,BR,Mon Mar  6 17:28:37 2023
358,wau,7.7029,27.9953,31.39,34,86,0.86,SS,Mon Mar  6 17:34:52 2023
359,majene,-3.5403,118.9707,25.21,81,99,1.66,ID,Mon Mar  6 17:33:41 2023
360,sharjah,25.3573,55.4033,21.99,63,0,1.54,AE,Mon Mar  6 17:34:52 2023
361,sorong,-0.8833,131.25,27.33,77,71,2.39,ID,Mon Mar  6 17:31:37 2023
362,carazinho,-28.2839,-52.7864,22.69,94,95,2.83,BR,Mon Mar  6 17:34:53 2023
363,pastavy,55.1168,26.8326,-5.97,91,35,2.69,BY,Mon Mar  6 17:34:53 2023
364,beidao,34.5686,105.8933,9.84,33,91,0.77,CN,Mon Mar  6 17:34:53 2023
365,huaraz,-9.5333,-77.5333,13.63,90,99,1.82,PE,Mon Mar  6 17:34:54 2023
366,karratha,-20.7377,116.8463,29.08,74,4,1.96,AU,Mon Mar  6 17:34:54 2023
367,chase,50.8165,-119.6857,4.07,77,98,0.25,CA,Mon Mar  6 17:34:54 2023
368,sal rei,16.1833,-22.9167,21.37,79,15,6.04,CV,Mon Mar  6 17:34:55 2023
369,los llanos de aridane,28.6585,-17.9182,16.86,79,0,2.57,ES,Mon Mar  6 17:34:55 2023
370,bam,29.106,58.357,19.73,31,3,3.38,IR,Mon Mar  6 17:34:55 2023
371,banda aceh,5.5577,95.3222,23.97,82,0,5.35,ID,Mon Mar  6 17:34:56 2023
372,puerto escondido,15.85,-97.0667,30.46,62,20,5.14,MX,Mon Mar  6 17:34:56 2023
373,qaqortoq,60.7167,-46.0333,-4.66,97,56,1.87,GL,Mon Mar  6 17:31:17 2023
374,canton,23.1167,113.25,21.04,51,32,2.88,CN,Mon Mar  6 17:34:57 2023
375,manta,-0.95,-80.7333,26.88,78,40,2.06,EC,Mon Mar  6 17:34:57 2023
376,cloquet,46.7216,-92.4594,2.66,81,100,1.54,US,Mon Mar  6 17:30:36 2023
377,iqaluit,63.7506,-68.5145,-4.15,100,75,6.71,CA,Mon Mar  6 17:34:57 2023
378,moose factory,51.2585,-80.6094,-6.0,49,0,3.6,CA,Mon Mar  6 17:34:58 2023
379,coquimbo,-29.9533,-71.3436,20.85,73,20,5.14,CL,Mon Mar  6 17:30:40 2023
380,qurayyat,31.3318,37.3428,11.1,62,0,5.14,SA,Mon Mar  6 17:34:58 2023
381,yuancheng,36.652,107.7896,5.49,19,34,0.94,CN,Mon Mar  6 17:34:58 2023
382,balkanabat,39.5108,54.3671,18.91,34,86,5.56,TM,Mon Mar  6 17:34:59 2023
383,marmande,44.5,0.1667,2.11,81,24,1.12,FR,Mon Mar  6 17:34:59 2023
384,giaveno,45.047,7.3492,7.67,75,62,2.3,IT,Mon Mar  6 17:34:59 2023
385,batemans bay,-35.7167,150.1833,20.05,33,9,4.09,AU,Mon Mar  6 17:35:00 2023
386,kruisfontein,-34.0033,24.7314,16.91,85,87,1.48,ZA,Mon Mar  6 17:35:00 2023
387,tateyama,34.9833,139.8667,8.94,68,1,1.67,JP,Mon Mar  6 17:35:00 2023
388,andros town,24.7,-77.7667,27.98,61,2,4.65,BS,Mon Mar  6 17:35:01 2023
389,touros,-5.1989,-35.4608,26.55,78,93,6.38,BR,Mon Mar  6 17:35:01 2023
390,arys,42.4252,68.795,14.88,43,44,6.31,KZ,Mon Mar  6 17:35:01 2023
391,tazovskiy,67.4667,78.7,-22.19,100,100,2.38,RU,Mon Mar  6 17:32:14 2023
392,nago,26.5881,127.9761,14.47,60,2,3.13,JP,Mon Mar  6 17:35:02 2023
393,sinnamary,5.3833,-52.95,24.89,86,99,5.54,GF,Mon Mar  6 17:32:03 2023
394,torbat-e jam,35.244,60.6225,15.85,29,1,2.75,IR,Mon Mar  6 17:35:02 2023
395,abu kamal,34.4506,40.9171,15.59,50,24,6.73,SY,Mon Mar  6 17:35:03 2023
396,picos,-7.0769,-41.4669,26.83,63,73,1.36,BR,Mon Mar  6 17:32:51 2023
397,gat,31.61,34.7642,14.67,100,55,2.28,IL,Mon Mar  6 17:33:02 2023
398,lovozero,68.005,35.0117,-16.95,94,100,1.3,RU,Mon Mar  6 17:35:04 2023
399,bonavista,48.6499,-53.1147,-3.1,95,94,3.44,CA,Mon Mar  6 17:34:00 2023
400,klaksvik,62.2266,-6.589,-1.49,57,100,13.06,FO,Mon Mar  6 17:35:04 2023
401,cheremukhovo,60.3484,59.9851,-17.52,99,98,0.25,RU,Mon Mar  6 17:35:05 2023
402,fort nelson,58.8053,-122.7002,-11.14,42,0,2.24,CA,Mon Mar  6 17:35:05 2023
403,inirida,3.8653,-67.9239,24.29,93,100,0.82,CO,Mon Mar  6 17:35:05 2023
404,severo-kurilsk,50.6789,156.125,0.51,90,100,4.63,RU,Mon Mar  6 17:35:06 2023
405,urumqi,43.801,87.6005,-1.47,86,67,2.0,CN,Mon Mar  6 17:31:06 2023
406,raglan,-37.8,174.8833,20.8,60,3,2.35,NZ,Mon Mar  6 17:35:07 2023
407,kamenka,51.3223,42.7678,-8.5,98,69,2.19,RU,Mon Mar  6 17:35:08 2023
408,college,64.8569,-147.8028,-1.22,67,75,0.0,US,Mon Mar  6 17:35:08 2023
409,lithakia,37.7167,20.8333,11.65,70,100,7.39,GR,Mon Mar  6 17:35:08 2023
410,mersing,2.4312,103.8405,23.95,94,40,2.57,MY,Mon Mar  6 17:35:09 2023
411,ketchikan,55.3422,-131.6461,0.26,34,20,1.54,US,Mon Mar  6 17:35:09 2023
412,huaihua,27.5494,109.9592,16.22,94,83,0.81,CN,Mon Mar  6 17:35:10 2023
413,buala,-8.145,159.5921,27.86,80,96,2.89,SB,Mon Mar  6 17:35:10 2023
414,staryy nadym,65.6118,72.6842,-17.54,97,100,4.29,RU,Mon Mar  6 17:35:12 2023
415,rio branco,-9.9747,-67.81,28.34,83,40,3.6,BR,Mon Mar  6 17:35:14 2023
416,lukovetskiy,64.2956,41.9211,-21.98,100,97,1.9,RU,Mon Mar  6 17:35:14 2023
417,byron bay,-28.65,153.6167,29.28,61,0,6.11,AU,Mon Mar  6 17:35:15 2023
418,peno,56.9262,32.7426,-5.77,94,99,3.93,RU,Mon Mar  6 17:35:15 2023
419,matara,5.9485,80.5353,23.03,91,15,3.89,LK,Mon Mar  6 17:35:16 2023
420,rotterdam,51.9225,4.4792,6.05,91,75,3.6,NL,Mon Mar  6 17:35:17 2023
421,srednekolymsk,67.45,153.6833,-32.28,97,61,1.0,RU,Mon Mar  6 17:35:17 2023
422,presidencia roque saenz pena,-26.7852,-60.4388,27.87,36,0,2.68,AR,Mon Mar  6 17:35:18 2023
423,jacareacanga,-6.2222,-57.7528,23.83,99,86,1.57,BR,Mon Mar  6 17:35:18 2023
424,tank,32.2217,70.3793,21.01,39,1,1.8,PK,Mon Mar  6 17:35:19 2023
425,morro bay,35.3658,-120.8499,14.77,68,100,3.13,US,Mon Mar  6 17:35:19 2023
426,leshukonskoye,64.8989,45.7622,-15.27,97,98,2.38,RU,Mon Mar  6 17:35:19 2023
427,sinjar,36.3209,41.8754,12.26,55,65,3.42,IQ,Mon Mar  6 17:35:20 2023
428,lima,-12.0432,-77.0282,25.14,65,0,6.17,PE,Mon Mar  6 17:29:32 2023
429,ocampo,21.65,-101.5,26.42,9,14,4.02,MX,Mon Mar  6 17:35:20 2023
430,san quintin,30.4833,-115.95,14.9,62,100,8.5,MX,Mon Mar  6 17:35:21 2023
431,hornepayne,49.2138,-84.7705,-2.87,90,100,2.75,CA,Mon Mar  6 17:35:21 2023
432,mancora,-4.1078,-81.0475,24.29,91,100,3.4,PE,Mon Mar  6 17:35:21 2023
433,saint-denis,48.9167,2.3333,7.09,68,100,5.14,FR,Mon Mar  6 17:35:22 2023
434,scarborough,54.2797,-0.4044,2.76,86,99,0.89,GB,Mon Mar  6 17:22:46 2023
435,hassan,13.0006,76.0994,17.44,45,37,2.42,IN,Mon Mar  6 17:35:22 2023
436,jieshi,22.8134,115.8257,15.2,72,6,5.17,CN,Mon Mar  6 17:35:22 2023
437,ancud,-41.8697,-73.8203,12.73,88,100,1.08,CL,Mon Mar  6 17:30:29 2023
438,obo,5.3998,26.4869,27.24,35,60,2.11,CF,Mon Mar  6 17:35:23 2023
439,sitka,57.0531,-135.33,0.94,27,0,4.12,US,Mon Mar  6 17:35:23 2023
440,zheleznodorozhnyy,55.7503,38.0042,-3.71,96,53,2.43,RU,Mon Mar  6 17:35:24 2023
441,tulun,54.5611,100.5792,-12.52,98,93,1.85,RU,Mon Mar  6 17:35:24 2023
442,huntington,38.4193,-82.4452,24.5,19,0,7.2,US,Mon Mar  6 17:32:54 2023
443,hendrina,-26.1588,29.7153,14.63,98,13,3.85,ZA,Mon Mar  6 17:35:25 2023
444,katangli,51.7102,143.2326,-8.84,92,100,3.94,RU,Mon Mar  6 17:35:25 2023
445,tuatapere,-46.1333,167.6833,18.37,53,85,2.72,NZ,Mon Mar  6 17:35:25 2023
446,kosh-agach,50.0,88.6667,-12.81,94,84,0.31,RU,Mon Mar  6 17:30:32 2023
447,onesti,46.25,26.75,2.02,56,100,1.94,RO,Mon Mar  6 17:35:26 2023
448,prince rupert,54.3161,-130.3201,1.05,44,0,2.57,CA,Mon Mar  6 17:33:42 2023
449,accra,5.556,-0.1969,28.23,83,40,6.69,GH,Mon Mar  6 17:35:27 2023
450,bolotnoye,55.6717,84.3981,-2.07,88,100,8.97,RU,Mon Mar  6 17:35:27 2023
451,suez,29.9737,32.5263,14.56,69,60,4.22,EG,Mon Mar  6 17:35:27 2023
452,ahipara,-35.1667,173.1667,20.94,66,14,1.1,NZ,Mon Mar  6 17:32:09 2023
453,jacobina,-11.1806,-40.5183,24.81,54,2,2.14,BR,Mon Mar  6 17:35:28 2023
454,nome,64.5011,-165.4064,0.65,100,100,6.17,US,Mon Mar  6 17:35:28 2023
455,luorong,24.4058,109.6086,18.7,56,57,1.4,CN,Mon Mar  6 17:35:29 2023
456,meulaboh,4.1363,96.1285,23.9,88,13,1.33,ID,Mon Mar  6 17:35:30 2023
457,kyra,49.5776,111.9753,-5.93,82,29,3.98,RU,Mon Mar  6 17:35:30 2023
458,urucara,-2.5364,-57.76,24.61,97,93,1.26,BR,Mon Mar  6 17:35:31 2023
459,kirkwall,58.9848,-2.9587,0.03,86,75,9.77,GB,Mon Mar  6 17:35:31 2023
460,furukawa,38.5717,140.9556,-0.14,62,2,1.57,JP,Mon Mar  6 17:35:32 2023
461,strezhevoy,60.7333,77.5889,-6.12,96,100,3.31,RU,Mon Mar  6 17:28:47 2023
462,mayo,38.8876,-76.5119,15.07,51,0,3.6,US,Mon Mar  6 17:30:49 2023
463,ono,34.85,134.9333,6.68,68,18,0.63,JP,Mon Mar  6 17:25:58 2023
464,havre-saint-pierre,50.2334,-63.5986,-1.0,86,100,3.6,CA,Mon Mar  6 17:35:33 2023
465,itarema,-2.9248,-39.9167,26.83,78,100,6.19,BR,Mon Mar  6 17:35:34 2023
466,sierpc,52.8568,19.6691,0.55,97,100,2.07,PL,Mon Mar  6 17:35:34 2023
467,marsa matruh,31.3525,27.2453,12.11,82,0,1.54,EG,Mon Mar  6 17:35:35 2023
468,yazman,29.1212,71.7446,22.33,29,22,3.62,PK,Mon Mar  6 17:35:35 2023
469,san rafael,-34.6177,-68.3301,28.43,37,0,2.51,AR,Mon Mar  6 17:33:03 2023
470,talnakh,69.4865,88.3972,-25.48,95,99,2.78,RU,Mon Mar  6 17:35:35 2023
471,padang,-0.9492,100.3543,24.03,86,100,1.78,ID,Mon Mar  6 17:32:53 2023
472,ouesso,1.6136,16.0517,26.32,58,95,1.23,CG,Mon Mar  6 17:35:36 2023
473,kuzovatovo,53.5468,47.6866,-9.77,94,36,3.51,RU,Mon Mar  6 17:35:36 2023
474,whitehorse,60.7161,-135.0538,-10.5,58,75,0.45,CA,Mon Mar  6 17:30:48 2023
475,krasnoshchekovo,51.6708,82.7289,1.73,83,100,8.8,RU,Mon Mar  6 17:35:37 2023
476,souillac,-20.5167,57.5167,25.21,94,75,1.03,MU,Mon Mar  6 17:35:37 2023
477,benguela,-12.5763,13.4055,24.53,78,84,2.22,AO,Mon Mar  6 17:35:37 2023
478,panvel,18.9833,73.1,25.04,59,66,3.55,IN,Mon Mar  6 17:35:38 2023
479,cruzeiro do sul,-29.5128,-51.9853,23.62,93,100,1.82,BR,Mon Mar  6 17:35:38 2023
480,humberto de campos,-2.5983,-43.4611,24.94,91,97,2.65,BR,Mon Mar  6 17:33:46 2023
481,oistins,13.0667,-59.5333,26.05,73,40,5.66,BB,Mon Mar  6 17:35:38 2023
482,imeni poliny osipenko,52.4201,136.4853,-13.14,93,95,1.57,RU,Mon Mar  6 17:35:39 2023
483,paramonga,-10.6667,-77.8333,23.88,74,77,3.36,PE,Mon Mar  6 17:35:39 2023
484,medicine hat,50.0501,-110.6683,-7.1,83,100,5.14,CA,Mon Mar  6 17:33:43 2023
485,oktyabrskoye,43.0645,44.7417,0.08,93,100,2.0,RU,Mon Mar  6 17:35:39 2023
486,vila velha,-20.3297,-40.2925,26.97,87,20,5.66,BR,Mon Mar  6 17:35:40 2023
487,ouango,4.3133,22.5552,25.35,47,39,0.3,CF,Mon Mar  6 17:35:40 2023
488,komsomolskiy,40.4272,71.7189,7.4,76,48,1.03,UZ,Mon Mar  6 17:35:40 2023
489,graciano sanchez,23.9167,-99.2833,32.53,31,37,4.65,MX,Mon Mar  6 17:35:41 2023
490,kalmunai,7.4167,81.8167,24.68,84,29,2.13,LK,Mon Mar  6 17:35:41 2023
491,marzuq,14.4,46.4667,17.58,37,0,2.7,YE,Mon Mar  6 17:35:42 2023
492,si chiang mai,17.9564,102.5867,19.49,61,0,1.75,TH,Mon Mar  6 17:35:42 2023
493,berlevag,70.8578,29.0864,-9.03,62,75,4.63,NO,Mon Mar  6 17:35:42 2023
494,bereda,43.2686,-7.5406,11.34,100,78,0.89,ES,Mon Mar  6 17:35:43 2023
495,santa cruz,-17.8,-63.1667,30.03,66,40,6.17,BO,Mon Mar  6 17:35:43 2023
496,hamilton,39.1834,-84.5333,23.05,36,0,8.75,US,Mon Mar  6 17:35:43 2023
497,newala,-10.9431,39.2787,18.73,98,100,1.79,TZ,Mon Mar  6 17:35:44 2023
498,cortez,37.3489,-108.5859,12.42,20,0,8.75,US,Mon Mar  6 17:35:44 2023
499,fortuna,40.5982,-124.1573,8.29,93,20,5.14,US,Mon Mar  6 17:35:45 2023
500,laela,-8.5667,32.05,16.15,94,100,1.25,TZ,Mon Mar  6 17:35:45 2023
501,bilma,18.6853,12.9164,27.44,11,7,3.48,NE,Mon Mar  6 17:35:45 2023
502,codrington,-38.2667,141.9667,13.92,68,95,7.19,AU,Mon Mar  6 17:35:46 2023
503,lufilufi,-13.8745,-171.5986,29.88,75,80,7.26,WS,Mon Mar  6 17:35:46 2023
504,chilliwack,49.1747,-121.9443,11.12,48,82,2.24,CA,Mon Mar  6 17:35:46 2023
505,gatton,-27.55,152.2833,26.35,51,1,1.62,AU,Mon Mar  6 17:35:46 2023
506,dehloran,32.6941,47.2679,19.78,65,90,3.42,IR,Mon Mar  6 17:35:47 2023
507,bonthe,7.5264,-12.505,24.34,89,91,1.77,SL,Mon Mar  6 17:35:47 2023
508,show low,34.2542,-110.0298,14.16,21,0,10.29,US,Mon Mar  6 17:35:47 2023
509,middlebury,44.0153,-73.1673,2.25,38,0,4.12,US,Mon Mar  6 17:35:48 2023
510,kelvington,52.1667,-103.5343,-14.91,89,56,1.24,CA,Mon Mar  6 17:35:48 2023
511,maku,39.2911,44.4521,4.93,65,2,2.97,IR,Mon Mar  6 17:35:49 2023
512,karachi,24.9056,67.0822,20.9,56,0,0.0,PK,Mon Mar  6 17:32:03 2023
513,ranong,9.9658,98.6348,22.96,91,4,2.15,TH,Mon Mar  6 17:35:49 2023
514,hwange,-18.3693,26.5019,22.37,76,79,1.02,ZW,Mon Mar  6 17:35:49 2023
515,sihora,23.4833,80.1167,21.24,32,67,2.09,IN,Mon Mar  6 17:35:50 2023
516,launceston,-41.45,147.1667,14.8,68,45,7.72,AU,Mon Mar  6 17:35:50 2023
517,sangar,63.9242,127.4739,-25.7,99,100,0.89,RU,Mon Mar  6 17:35:51 2023
518,senneterre,48.3835,-77.2328,-6.96,88,82,4.66,CA,Mon Mar  6 17:35:51 2023
519,barrhead,55.7992,-4.3929,1.58,76,100,3.09,GB,Mon Mar  6 17:35:51 2023
520,salinas,36.6777,-121.6555,13.49,52,40,4.63,US,Mon Mar  6 17:35:44 2023
521,luderitz,-26.6481,15.1594,16.7,80,0,8.61,NA,Mon Mar  6 17:35:52 2023
522,peace river,56.2501,-117.286,-11.83,56,75,3.6,CA,Mon Mar  6 17:35:52 2023
523,warrnambool,-38.3833,142.4833,14.22,68,90,9.47,AU,Mon Mar  6 17:35:53 2023
524,veraval,20.9,70.3667,24.1,50,0,1.87,IN,Mon Mar  6 17:35:53 2023
525,warren,39.4334,-84.1666,22.66,37,52,6.17,US,Mon Mar  6 17:35:53 2023
526,sawakin,19.1059,37.3321,26.31,77,0,4.03,SD,Mon Mar  6 17:35:54 2023
527,labuhan,-6.8844,112.2051,24.47,87,86,1.92,ID,Mon Mar  6 17:35:54 2023
528,samarai,-10.6167,150.6667,27.95,72,55,2.32,PG,Mon Mar  6 17:35:55 2023
529,hervey bay,-25.2986,152.8535,25.65,62,1,2.6,AU,Mon Mar  6 17:35:55 2023
530,pacific grove,36.6177,-121.9166,12.71,61,0,4.63,US,Mon Mar  6 17:33:44 2023
531,ilovlya,49.3033,43.9796,-0.79,69,30,1.93,RU,Mon Mar  6 17:35:56 2023
532,chimbote,-9.0853,-78.5783,24.11,72,100,3.02,PE,Mon Mar  6 17:35:07 2023
533,samarina,57.8878,27.8054,-4.06,94,98,3.43,RU,Mon Mar  6 17:35:56 2023
534,havoysund,70.9963,24.6622,-7.87,70,14,4.12,NO,Mon Mar  6 17:35:56 2023
535,kimbe,-5.5502,150.1429,27.0,84,98,0.58,PG,Mon Mar  6 17:35:57 2023
536,saint-joseph,-21.3667,55.6167,25.26,86,95,3.83,RE,Mon Mar  6 17:35:57 2023
537,evensk,61.95,159.2333,-14.93,90,100,4.98,RU,Mon Mar  6 17:35:58 2023
538,lishui,28.4604,119.9103,9.49,61,9,1.27,CN,Mon Mar  6 17:35:58 2023
539,orshanka,56.9161,47.8933,-10.0,99,100,1.01,RU,Mon Mar  6 17:35:58 2023
540,parkent,41.2944,69.6764,8.9,52,8,4.89,UZ,Mon Mar  6 17:35:59 2023
541,panguna,-6.3164,155.4848,26.97,61,74,0.68,PG,Mon Mar  6 17:35:59 2023
542,high level,58.5169,-117.136,-16.94,55,0,2.57,CA,Mon Mar  6 17:35:08 2023
543,san policarpo,12.1791,125.5072,25.52,83,9,5.06,PH,Mon Mar  6 17:36:00 2023
544,mudon,16.2578,97.7164,23.07,71,0,1.3,MM,Mon Mar  6 17:36:00 2023
545,umea,63.8284,20.2597,-13.04,78,100,0.51,SE,Mon Mar  6 17:36:00 2023
546,baruun-urt,46.6806,113.2792,1.58,43,100,5.92,MN,Mon Mar  6 17:36:01 2023
547,lazi,48.0667,24.2333,-1.44,92,100,1.64,UA,Mon Mar  6 17:36:01 2023
548,homer,59.6425,-151.5483,1.93,67,0,2.06,US,Mon Mar  6 17:36:02 2023
549,vostok,46.4856,135.8833,-2.45,96,100,1.85,RU,Mon Mar  6 17:36:02 2023
550,jackson,42.4165,-122.8345,8.53,57,100,2.68,US,Mon Mar  6 17:33:52 2023
551,zhigansk,66.7697,123.3711,-35.42,100,66,2.59,RU,Mon Mar  6 17:31:39 2023
552,cucutilla,7.5394,-72.7724,22.58,95,100,0.96,CO,Mon Mar  6 17:36:03 2023
553,ridgecrest,35.6225,-117.6709,13.14,26,75,4.12,US,Mon Mar  6 17:32:51 2023
554,lasa,46.6166,10.7002,4.83,91,96,1.15,IT,Mon Mar  6 17:36:03 2023
555,conde,-7.2597,-34.9075,26.7,78,20,3.6,BR,Mon Mar  6 17:32:56 2023
556,camacha,33.0833,-16.3333,16.68,88,20,4.63,PT,Mon Mar  6 17:36:04 2023
557,palembang,-2.9167,104.7458,25.05,94,40,1.03,ID,Mon Mar  6 17:36:05 2023
558,hambantota,6.1241,81.1185,24.58,84,8,6.08,LK,Mon Mar  6 17:36:05 2023
559,nadvoitsy,63.8667,34.3167,-11.05,96,98,2.86,RU,Mon Mar  6 17:36:06 2023
560,port lincoln,-34.7333,135.8667,16.97,61,74,7.32,AU,Mon Mar  6 17:34:37 2023
561,hays,30.0502,-98.0336,27.73,59,58,1.34,US,Mon Mar  6 17:36:06 2023
562,tombouctou,20.0,-3.0,24.84,10,100,4.64,ML,Mon Mar  6 17:36:07 2023
563,ballina,-28.8667,153.5667,29.32,77,0,4.65,AU,Mon Mar  6 17:36:07 2023
564,novyy urengoy,66.0833,76.6333,-17.19,97,100,3.14,RU,Mon Mar  6 17:34:50 2023
565,marystown,47.1666,-55.1483,-2.97,86,82,3.31,CA,Mon Mar  6 17:36:08 2023
566,aviles,43.5547,-5.9248,10.76,87,40,1.54,ES,Mon Mar  6 17:36:08 2023
567,uige,-7.6087,15.0613,20.96,86,83,1.17,AO,Mon Mar  6 17:36:09 2023
568,nikolayevka,53.1257,47.2041,-11.02,96,27,3.14,RU,Mon Mar  6 17:36:09 2023
569,aranos,-24.1333,19.1167,21.7,23,1,3.48,NA,Mon Mar  6 17:36:10 2023
570,kayerkan,69.3497,87.7602,-25.79,95,99,2.93,RU,Mon Mar  6 17:36:10 2023
571,keti bandar,24.1447,67.4497,23.45,72,0,2.68,PK,Mon Mar  6 17:36:11 2023
572,margate,51.3813,1.3862,5.73,88,100,1.34,GB,Mon Mar  6 17:36:11 2023
573,kulhudhuffushi,6.6221,73.07,27.16,75,90,6.13,MV,Mon Mar  6 17:36:12 2023
574,bandarbeyla,9.4942,50.8122,24.7,76,11,5.88,SO,Mon Mar  6 17:36:12 2023
575,corowa,-36.0333,146.3833,18.65,70,0,4.92,AU,Mon Mar  6 17:36:13 2023
576,acarau,-2.8856,-40.12,26.92,77,99,6.56,BR,Mon Mar  6 17:36:14 2023
577,senador guiomard,-10.1522,-67.7392,27.86,95,96,1.81,BR,Mon Mar  6 17:36:14 2023
578,hit,33.6416,42.8251,18.38,36,36,6.75,IQ,Mon Mar  6 17:36:15 2023
579,thinadhoo,0.5333,72.9333,27.47,70,36,1.36,MV,Mon Mar  6 17:36:15 2023
580,midland,31.9974,-102.0779,29.37,9,0,7.72,US,Mon Mar  6 17:34:40 2023
581,houlton,46.1262,-67.8403,0.23,63,100,6.17,US,Mon Mar  6 17:36:16 2023
